[
  {
    "NAME": "ASHLAND COMMERCIAL, LLC",
    "ADDRESS": "1608 W ADAMS ST 2,3,4",
    "CITY": "CHICAGO",
    "STATE": "IL",
    "ZIPCODE": 60612,
    "TYPE": "Provide 4 or More Parking Spaces For a Fee - Available and Advertised to the Public",
    "LATITUDE": 41.8789977,
    "LONGITUDE": -87.66718674
  },
  {
    "NAME": "SAFE AIR OF CHICAGOLAND, INC.",
    "ADDRESS": "1557  WEBSTER LN",
    "CITY": "DES PLAINES",
    "STATE": "IL",
    "ZIPCODE": 60018,
    "TYPE": "Heating, Ventilation and Air Conditioning Services - Residential",
    "LATITUDE": 41.92145946,
    "LONGITUDE": -87.66807136
  },
  {
    "NAME": "Chicago Methodist Senior Services",
    "ADDRESS": "5145 N GLENWOOD AVE",
    "CITY": "CHICAGO",
    "STATE": "IL",
    "ZIPCODE": 60640,
    "TYPE": "Not-For-Profit Selling Raffles for Prizes of $50 or More",
    "LATITUDE": 41.9758337,
    "LONGITUDE": -87.66459393
  },
  {
    "NAME": "ARMITAGE AUTO REPAIR & BODY SHOP, INC.",
    "ADDRESS": "2036-2038 W ARMITAGE AVE",
    "CITY": "CHICAGO",
    "STATE": "IL",
    "ZIPCODE": 60647,
    "TYPE": "Motor Vehicle Repair - Engine and Body Work",
    "LATITUDE": 41.91783852,
    "LONGITUDE": -87.67908531
  },
  {
    "NAME": "MILANI",
    "ADDRESS": "50 E OAK ST LL",
    "CITY": "CHICAGO",
    "STATE": "IL",
    "ZIPCODE": 60611,
    "TYPE": "Retail Sales of Clothing / Accessories / Shoes",
    "LATITUDE": 41.90088647,
    "LONGITUDE": -87.62650557
  },
  {
    "NAME": "PIZZERIA UNO CHICAGO BAR & GRILL",
    "ADDRESS": "29 E OHIO ST",
    "CITY": "CHICAGO",
    "STATE": "IL",
    "ZIPCODE": 60611,
    "TYPE": "Consumption of Liquor on Premises",
    "LATITUDE": 41.89238342,
    "LONGITUDE": -87.62680479
  },
  {
    "NAME": "T & C WELDER SERVICE LLC",
    "ADDRESS": "109 W 103RD ST 1ST",
    "CITY": "CHICAGO",
    "STATE": "IL",
    "ZIPCODE": 60628,
    "TYPE": "Motor Vehicle Repair - No Engine Work/No Body Work",
    "LATITUDE": 41.7070174,
    "LONGITUDE": -87.6263617
  },
  {
    "NAME": "Delta Sky Club",
    "ADDRESS": "11601 W TOUHY AVE  TERMINAL 5",
    "CITY": "CHICAGO",
    "STATE": "IL",
    "ZIPCODE": 60666,
    "TYPE": "Consumption of Liquor on Premises",
    "LATITUDE": 42.00875077,
    "LONGITUDE": -87.90687413
  },
  {
    "NAME": "Envios Lopez",
    "ADDRESS": "4149 W 63RD ST",
    "CITY": "CHICAGO",
    "STATE": "IL",
    "ZIPCODE": 60629,
    "TYPE": "Miscellaneous Commercial Services | Retail Sales of Cell Phones and Accessories",
    "LATITUDE": 41.77849487,
    "LONGITUDE": -87.72715855
  },
  {
    "NAME": "MEDINAH BARBER SHOP",
    "ADDRESS": "3 E HURON ST",
    "CITY": "CHICAGO",
    "STATE": "IL",
    "ZIPCODE": 60611,
    "TYPE": "Hair Services",
    "LATITUDE": 41.89476857,
    "LONGITUDE": -87.62799659
  }
